[
  {
    "id": "F5B1C7A9-6D0E-4E8A-8F7C-9A0B1D2E3F45",
    "name": "Newton Highlands Playground",
    "address": "Approx. 50 Winchester St",
    "notes": "Full court, usually busy after school",
    "latitude": 42.31725,
    "longitude": -71.20654
  },
  {
    "id": "E621E1F8-C36C-495A-93FC-0C247A3E6E29",
    "name": "Cabot Park",
    "address": "Approx. 101 East Side Pkwy",
    "notes": "Multiple courts, well maintained",
    "latitude": 42.35031,
    "longitude": -71.19726
  },
  {
    "id": "A1B2C3D4-E5F6-7890-1234-567890ABCDEF",
    "name": "Albemarle Field",
    "address": "Approx. 250 Albemarle Rd",
    "notes": "Courts near the field house",
    "latitude": 42.35791,
    "longitude": -71.21521
  },
  {
    "id": "12345678-1234-1234-1234-1234567890AB",
    "name": "Burr Park",
    "address": "Approx. 142 Park St",
    "notes": "Single court",
    "latitude": 42.35232,
    "longitude": -71.18092
  },
  {
    "id": "550E8400-E29B-41D4-A716-446655440000",
    "name": "Pellegrini Playground",
    "address": "Approx. 11 Hawthorn St, Nonantum",
    "notes": "Usually has games",
    "latitude": 42.35857,
    "longitude": -71.20307
  },
  {
    "id": "7F43768D-5759-4E1C-A59C-32B6B737E7C7",
    "name": "Margot Connell Recreation Center",
    "address": "Edmonds Hall, 200 St Thomas More Rd",
    "notes": "Indoor courts, likely requires BC affiliation",
    "latitude": 42.33734,
    "longitude": -71.16468
  }
]

